[
  {
    "id":1,
    "Terminal Name":"Apollo Road ferry terminal",
    "Street":"Apollo Rd",
    "Location":"FS",
    "Cross Street":"Byron St",
    "Suburb":"BULIMBA",
    "Latitude":"-27.44314448",
    "Longitude":"153.0638084",
    "Accessibility":"Assisted Mobility Impaired Access",
    "Nearby Bus \nServices":"Yes",
    "Parking":"Yes - on-street",
    "CityCat service":"Yes",
    "CityFerry (cross-river)":"",
    "CityHopper service":""
  },
  {
    "id":2,
    "Terminal Name":"Sydney Street ferry terminal",
    "Street":"Sydney St",
    "Location":"",
    "Cross Street":"Oxlade Dr",
    "Suburb":"NEW FARM",
    "Latitude":"-27.474851",
    "Longitude":"153.042196",
    "Accessibility":"Disabled Access",
    "Nearby Bus \nServices":"Yes",
    "Parking":"",
    "CityCat service":"Yes",
    "CityFerry (cross-river)":"",
    "CityHopper service":"Yes"
  },
  {
    "id":3,
    "Terminal Name":"Riverside ferry terminal",
    "Street":"Eagle St",
    "Location":"",
    "Cross Street":"Queen St",
    "Suburb":"CITY",
    "Latitude":"-27.46708903",
    "Longitude":"153.03123",
    "Accessibility":"Disabled Access",
    "Nearby Bus \nServices":"Yes",
    "Parking":"",
    "CityCat service":"Yes",
    "CityFerry (cross-river)":"",
    "CityHopper service":""
  },
  {
    "id":4,
    "Terminal Name":"Eagle Street Pier ferry terminal",
    "Street":"Eagle St",
    "Location":"",
    "Cross Street":"Charlotte St",
    "Suburb":"CITY",
    "Latitude":"-27.46879602",
    "Longitude":"153.030954",
    "Accessibility":"",
    "Nearby Bus \nServices":"Yes",
    "Parking":"",
    "CityCat service":"",
    "CityFerry (cross-river)":"Yes",
    "CityHopper service":"Yes"
  },
  {
    "id":5,
    "Terminal Name":"QUT Gardens Point ferry terminal",
    "Street":"Alice St",
    "Location":"",
    "Cross Street":"William St",
    "Suburb":"CITY",
    "Latitude":"-27.478525",
    "Longitude":"153.026228",
    "Accessibility":"Disabled Access",
    "Nearby Bus \nServices":"",
    "Parking":"",
    "CityCat service":"Yes",
    "CityFerry (cross-river)":"",
    "CityHopper service":""
  },
  {
    "id":6,
    "Terminal Name":"North Quay ferry terminal",
    "Street":"Queens Wharf Rd",
    "Location":"",
    "Cross Street":"Elizabeth St",
    "Suburb":"NORTH QUAY",
    "Latitude":"-27.47283",
    "Longitude":"153.022497",
    "Accessibility":"Disabled Access (terminal only; not approach)",
    "Nearby Bus \nServices":"Yes",
    "Parking":"",
    "CityCat service":"Yes",
    "CityFerry (cross-river)":"",
    "CityHopper service":"Yes"
  },
  {
    "id":8,
    "Terminal Name":"Regatta ferry terminal",
    "Street":"Coronation Dr",
    "Location":"",
    "Cross Street":"Sylvan Rd",
    "Suburb":"TOOWONG",
    "Latitude":"27.483314",
    "Longitude":"152.996929",
    "Accessibility":"Disabled Access",
    "Nearby Bus \nServices":"Yes",
    "Parking":"",
    "CityCat service":"Yes",
    "CityFerry (cross-river)":"",
    "CityHopper service":""
  },
  {
    "id":9,
    "Terminal Name":"Guyatt Park ferry terminal",
    "Street":"Macquarie St",
    "Location":"",
    "Cross Street":"Laurence St",
    "Suburb":"ST LUCIA",
    "Latitude":"-27.492312",
    "Longitude":"153.001872",
    "Accessibility":"Assisted Mobility Impaired Access",
    "Nearby Bus \nServices":"Yes",
    "Parking":"Yes - limited",
    "CityCat service":"Yes",
    "CityFerry (cross-river)":"",
    "CityHopper service":""
  },
  {
    "id":10,
    "Terminal Name":"UQ St Lucia ferry terminal",
    "Street":"Sir William Macgregor Dr",
    "Location":"",
    "Cross Street":"Blair Dr",
    "Suburb":"ST LUCIA",
    "Latitude":"-27.496729",
    "Longitude":"153.019589",
    "Accessibility":"Disabled Access",
    "Nearby Bus \nServices":"Yes",
    "Parking":"",
    "CityCat service":"Yes",
    "CityFerry (cross-river)":"",
    "CityHopper service":""
  },
  {
    "id":11,
    "Terminal Name":"West End ferry terminal",
    "Street":"Hoogley St",
    "Location":"AT",
    "Cross Street":"Orleigh St",
    "Suburb":"WEST END",
    "Latitude":"-27.490417",
    "Longitude":"153.003217",
    "Accessibility":"Disabled Access",
    "Nearby Bus \nServices":"Yes",
    "Parking":"",
    "CityCat service":"Yes",
    "CityFerry (cross-river)":"",
    "CityHopper service":""
  },
  {
    "id":12,
    "Terminal Name":"South Bank 1 ferry terminal",
    "Street":"South Bank Boardwalk",
    "Location":"AT",
    "Cross Street":"South Bank Parklands",
    "Suburb":"SOUTH BRISBANE",
    "Latitude":"-27.47583096",
    "Longitude":"153.022207",
    "Accessibility":"Assisted Mobility Impaired Access",
    "Nearby Bus \nServices":"Yes",
    "Parking":"",
    "CityCat service":"Yes",
    "CityFerry (cross-river)":"",
    "CityHopper service":""
  },
  {
    "id":13,
    "Terminal Name":"South Bank 2 ferry terminal",
    "Street":"South Bank Boardwalk",
    "Location":"AT",
    "Cross Street":"South Bank Parklands",
    "Suburb":"SOUTH BRISBANE",
    "Latitude":"-27.47612302",
    "Longitude":"153.02239",
    "Accessibility":"Assisted Mobility Impaired Access",
    "Nearby Bus \nServices":"Yes",
    "Parking":"",
    "CityCat service":"Yes",
    "CityFerry (cross-river)":"",
    "CityHopper service":""
  },
  {
    "id":14,
    "Terminal Name":"South Bank 3 ferry terminal",
    "Street":"South Bank Boardwalk",
    "Location":"AT",
    "Cross Street":"South Bank Parklands",
    "Suburb":"SOUTH BRISBANE",
    "Latitude":"-27.47979196",
    "Longitude":"153.025037",
    "Accessibility":"",
    "Nearby Bus \nServices":"Yes",
    "Parking":"",
    "CityCat service":"",
    "CityFerry (cross-river)":"",
    "CityHopper service":"Yes"
  },
  {
    "id":15,
    "Terminal Name":"Maritime Museum ferry terminal",
    "Street":"Lower River Tce",
    "Location":"",
    "Cross Street":"Christie St",
    "Suburb":"SOUTH BRISBANE",
    "Latitude":"-27 28'55.0079\"",
    "Longitude":"153 01'44.0915\"",
    "Accessibility":"Disabled Access",
    "Nearby Bus \nServices":"",
    "Parking":"",
    "CityCat service":"",
    "CityFerry (cross-river)":"",
    "CityHopper service":"Yes"
  },
  {
    "id":16,
    "Terminal Name":"Thornton Street ferry terminal",
    "Street":"Thornton St",
    "Location":"",
    "Cross Street":"Pixley St",
    "Suburb":"KANGAROO POINT",
    "Latitude":"-27.47122298",
    "Longitude":"153.034033",
    "Accessibility":"",
    "Nearby Bus \nServices":"",
    "Parking":"",
    "CityCat service":"",
    "CityFerry (cross-river)":"Yes",
    "CityHopper service":"Yes"
  },
  {
    "id":17,
    "Terminal Name":"Holman Street ferry terminal",
    "Street":"Holman St",
    "Location":"",
    "Cross Street":"Annie St",
    "Suburb":"KANGAROO POINT",
    "Latitude":"-27 27'56.4248\"",
    "Longitude":"153 02'00.6217\"",
    "Accessibility":"Disabled Access",
    "Nearby Bus \nServices":"",
    "Parking":"",
    "CityCat service":"",
    "CityFerry (cross-river)":"Yes",
    "CityHopper service":"Yes"
  },
  {
    "id":18,
    "Terminal Name":"Dockside ferry terminal",
    "Street":"Ferry St",
    "Location":"App",
    "Cross Street":"Dockside Ferry",
    "Suburb":"KANGAROO POINT",
    "Latitude":"-27.47247098",
    "Longitude":"153.039021",
    "Accessibility":"",
    "Nearby Bus \nServices":"",
    "Parking":"",
    "CityCat service":"",
    "CityFerry (cross-river)":"",
    "CityHopper service":"Yes"
  },
  {
    "id":19,
    "Terminal Name":"Mowbray ferry terminal",
    "Street":"Park Av",
    "Location":"FS",
    "Cross Street":"Thorn St",
    "Suburb":"EAST BRISBANE",
    "Latitude":"-27.47729204",
    "Longitude":"153.043255",
    "Accessibility":"Disabled Access",
    "Nearby Bus \nServices":"Yes",
    "Parking":"Yes - limited",
    "CityCat service":"Yes",
    "CityFerry (cross-river)":"",
    "CityHopper service":""
  },
  {
    "id":20,
    "Terminal Name":"Hawthorne ferry terminal",
    "Street":"Gordon St",
    "Location":"Opp",
    "Cross Street":"Lindsay St",
    "Suburb":"HAWTHORNE",
    "Latitude":"-27.461157",
    "Longitude":"153.0531",
    "Accessibility":"Disabled Access",
    "Nearby Bus \nServices":"Yes",
    "Parking":"Yes - limited on-street",
    "CityCat service":"Yes",
    "CityFerry (cross-river)":"",
    "CityHopper service":""
  },
  {
    "id":21,
    "Terminal Name":"Bulimba ferry terminal",
    "Street":"Oxford St",
    "Location":"",
    "Cross Street":"Quay St",
    "Suburb":"BULIMBA",
    "Latitude":"-27.450697",
    "Longitude":"153.052122",
    "Accessibility":"Disabled Access",
    "Nearby Bus \nServices":"Yes",
    "Parking":"",
    "CityCat service":"Yes",
    "CityFerry (cross-river)":"Yes",
    "CityHopper service":""
  },
  {
    "id":22,
    "Terminal Name":"Norman Park ferry terminal",
    "Street":"Wynnum Rd",
    "Location":"",
    "Cross Street":"Norman Av",
    "Suburb":"NORMAN PARK",
    "Latitude":"-27.47434797",
    "Longitude":"153.053649",
    "Accessibility":"",
    "Nearby Bus \nServices":"Yes",
    "Parking":"",
    "CityCat service":"",
    "CityFerry (cross-river)":"Yes",
    "CityHopper service":""
  },
  {
    "id":23,
    "Terminal Name":"Bretts Wharf ferry terminal",
    "Street":"Kingsford Smith Dr",
    "Location":"",
    "Cross Street":"Racecourse Rd",
    "Suburb":"HAMILTON",
    "Latitude":"-27.440287",
    "Longitude":"153.064105",
    "Accessibility":"Disabled Access",
    "Nearby Bus \nServices":"Yes",
    "Parking":"",
    "CityCat service":"Yes",
    "CityFerry (cross-river)":"",
    "CityHopper service":""
  },
  {
    "id":24,
    "Terminal Name":"Teneriffe ferry terminal",
    "Street":"Commercial Rd",
    "Location":"",
    "Cross Street":"Skyring Tce",
    "Suburb":"NEWSTEAD",
    "Latitude":"-27.451813",
    "Longitude":"153.04948",
    "Accessibility":"Disabled Access",
    "Nearby Bus \nServices":"Yes",
    "Parking":"",
    "CityCat service":"Yes",
    "CityFerry (cross-river)":"Yes",
    "CityHopper service":""
  },
  {
    "id":25,
    "Terminal Name":"New Farm Park ferry terminal",
    "Street":"Brunswick St",
    "Location":"",
    "Cross Street":"Oxlade Dr",
    "Suburb":"NEW FARM",
    "Latitude":"-27.47172",
    "Longitude":"153.052482",
    "Accessibility":"Disabled Access",
    "Nearby Bus \nServices":"Yes",
    "Parking":"Yes - limited on-street",
    "CityCat service":"Yes",
    "CityFerry (cross-river)":"Yes",
    "CityHopper service":""
  },
  {
    "id":26,
    "Terminal Name":"Northshore Hamilton ferry terminal",
    "Street":"Macarthur Av",
    "Location":"",
    "Cross Street":"Macarthur Av",
    "Suburb":"HAMILTON",
    "Latitude":"-27.44527",
    "Longitude":"153.08394",
    "Accessibility":"Disabled Access",
    "Nearby Bus \nServices":"",
    "Parking":"",
    "CityCat service":"Yes",
    "CityFerry (cross-river)":"",
    "CityHopper service":""
  },
  {
    "id":27,
    "Terminal Name":"Milton",
    "Street":"Coronation Dr",
    "Location":"Opp",
    "Cross Street":"Park Rd",
    "Suburb":"MILTON",
    "Latitude":"-27.473704",
    "Longitude":"153.005532",
    "Accessibility":"Disabled Access",
    "Nearby Bus \nServices":"",
    "Parking":"",
    "CityCat service":"Yes",
    "CityFerry (cross-river)":"",
    "CityHopper service":""
  },
  {
    "id":null,
    "Terminal Name":"",
    "Street":"",
    "Location":"",
    "Cross Street":"",
    "Suburb":"",
    "Latitude":"",
    "Longitude":"",
    "Accessibility":"",
    "Nearby Bus \nServices":"",
    "Parking":"",
    "CityCat service":"",
    "CityFerry (cross-river)":"",
    "CityHopper service":""
  },
  {
    "id":null,
    "Terminal Name":"",
    "Street":"",
    "Location":"",
    "Cross Street":"",
    "Suburb":"",
    "Latitude":",",
    "Longitude":"",
    "Accessibility":"",
    "Nearby Bus \nServices":"",
    "Parking":"",
    "CityCat service":"",
    "CityFerry (cross-river)":"",
    "CityHopper service":""
  }
]